[ { "id": 1, "name": "Porac → Angeles", "color": "#FFA500", "path": [ { "latitude": 15.074, "longitude": 120.648 }, { "latitude": 15.080, "longitude": 120.660 }, { "latitude": 15.085, "longitude": 120.670 } ],
  "stops": [ { "latitude": 15.074, "longitude": 120.648, "title": "Porac Terminal" }, { "latitude": 15.085, "longitude": 120.670, "title": "Angeles Junction" } ] }, { "id": 2, "name": "Angeles → SM Clark Loop", "color": "#1E90FF", "path": [ { "latitude": 15.085, "longitude": 120.670 }, { "latitude": 15.095, "longitude": 120.675 }, { "latitude": 15.100, "longitude": 120.680 } ], "stops": [ { "latitude": 15.085, "longitude": 120.670, "title": "Angeles Junction" }, { "latitude": 15.100, "longitude": 120.680, "title": "SM Clark" } ] }, { "id": 3, "name": "Porac → SM Clark Loop", "color": "#1E90FF", "path": [ { "latitude": 15.085, "longitude": 120.670 }, { "latitude": 15.095, "longitude": 120.675 }, { "latitude": 15.100, "longitude": 120.680 } ], "stops": [ { "latitude": 15.085, "longitude": 120.670, "title": "Angeles Junction" }, { "latitude": 15.100, "longitude": 120.680, "title": "SM Clark" } ] }, { "id": 4, "name": "Pampanga → SM Clark Loop", "color": "#1E90FF", "path": [ { "latitude": 15.085, "longitude": 120.670 }, { "latitude": 15.095, "longitude": 120.675 }, { "latitude": 15.100, "longitude": 120.680 } ], "stops": [ { "latitude": 15.085, "longitude": 120.670, "title": "Angeles Junction" }, { "latitude": 15.100, "longitude": 120.680, "title": "SM Clark" } ] } ]